[{"id":386793,"name":"Beijing Shi, Beijing, China","region":"Beijing","country":"China","lat":39.93,"lon":116.39,"url":"beijing-shi-beijing-china"},{"id":450504,"name":"Peiching, Beijing, China","region":"Beijing","country":"China","lat":39.93,"lon":116.39,"url":"peiching-beijing-china"},{"id":450506,"name":"Peichingshih, Beijing, China","region":"Beijing","country":"China","lat":39.93,"lon":116.39,"url":"peichingshih-beijing-china"},{"id":450740,"name":"Peiping, Beijing, China","region":"Beijing","country":"China","lat":39.93,"lon":116.39,"url":"peiping-beijing-china"},{"id":450742,"name":"Peipingshih, Beijing, China","region":"Beijing","country":"China","lat":39.93,"lon":116.39,"url":"peipingshih-beijing-china"},{"id":450935,"name":"Pekin, Beijing, China","region":"Beijing","country":"China","lat":39.93,"lon":116.39,"url":"pekin-beijing-china"},{"id":451178,"name":"Peping, Beijing, China","region":"Beijing","country":"China","lat":39.93,"lon":116.39,"url":"peping-beijing-china"},{"id":450934,"name":"Peking, Beijing, China","region":"Beijing","country":"China","lat":39.93,"lon":116.39,"url":"peking-beijing-china"},{"id":386789,"name":"Beijing, Beijing, China","region":"Beijing","country":"China","lat":39.93,"lon":116.39,"url":"beijing-beijing-china"},{"id":406302,"name":"Fengsheng, Beijing, China","region":"Beijing","country":"China","lat":39.92,"lon":116.36,"url":"fengsheng-beijing-china"}]